[
  {
    "facilityID": "663A4",
    "VISN": 20,
    "name": "American Lake VA Medical Center",
    "type": 0,
    "address": "9600 Veterans Drive Southwest",
    "city": "Tacoma",
    "state": "WA",
    "zip": "98493",
    "phone": "253-582-8440 ",
    "fax": "253-589-4015 ",
    "url": "http://www.pugetsound.va.gov/",
    "latitude": "47.13512206",
    "longitude": "-122.57703708",
    "ApptTypeName": "PRIMARY CARE",
    "estWaitTime": 6.0,
    "newWaitTime": 51.0,
    "sliceEndDate": "2017-07-24T00:00:00",
    "ED": false,
    "UC": true,
    "SameDayPC": true,
    "SameDayMH": true,
    "WalkInPC": false,
    "WalkInMH": true,
    "TelehealthPC": false,
    "TelehealthMH": false,
    "distance": -1
  },
  {
    "facilityID": "663GA",
    "VISN": 20,
    "name": "Bellevue VA Clinic",
    "type": 1,
    "address": "13033 Bel-Red Road",
    "city": "Bellevue",
    "state": "WA",
    "zip": "98005",
    "phone": "844-296-6566 ",
    "fax": "425-453-1619 ",
    "url": "",
    "latitude": 47.62158255,
    "longitude": -122.16677375,
    "ApptTypeName": "PRIMARY CARE",
    "estWaitTime": 3.0,
    "newWaitTime": 29.0,
    "sliceEndDate": "2017-07-24T00:00:00",
    "ED": false,
    "UC": false,
    "SameDayPC": true,
    "SameDayMH": true,
    "WalkInPC": false,
    "WalkInMH": true,
    "TelehealthPC": false,
    "TelehealthMH": true,
    "distance": -1
  },
  {
    "facilityID": "663GB",
    "VISN": 20,
    "name": "Bremerton VA Clinic",
    "type": 1,
    "address": "925 Adele Avenue",
    "city": "Bremerton",
    "state": "WA",
    "zip": "98312",
    "phone": "360-473-0340 ",
    "fax": "360-377-8029 ",
    "url": "",
    "latitude": 47.56989696,
    "longitude": -122.66304985,
    "ApptTypeName": "PRIMARY CARE",
    "estWaitTime": 5.0,
    "newWaitTime": 16.0,
    "sliceEndDate": "2017-07-24T00:00:00",
    "ED": false,
    "UC": false,
    "SameDayPC": true,
    "SameDayMH": true,
    "WalkInPC": false,
    "WalkInMH": true,
    "TelehealthPC": false,
    "TelehealthMH": true,
    "distance": -1
  },
  {
    "facilityID": "687",
    "VISN": 20,
    "name": "Jonathan M. Wainwright Memorial VA Medical Center",
    "type": 0,
    "address": "77 Wainwright Drive",
    "city": "Walla Walla",
    "state": "WA",
    "zip": "99362",
    "phone": "509-525-5200 ",
    "fax": "509-527-3452 ",
    "url": "http://www.wallawalla.va.gov/",
    "latitude": 46.05265094,
    "longitude": -118.35531495,
    "ApptTypeName": "PRIMARY CARE",
    "estWaitTime": 11.0,
    "newWaitTime": 19.0,
    "sliceEndDate": "2017-07-24T00:00:00",
    "ED": false,
    "UC": false,
    "SameDayPC": true,
    "SameDayMH": true,
    "WalkInPC": true,
    "WalkInMH": false,
    "TelehealthPC": true,
    "TelehealthMH": false,
    "distance": -1
  },
  {
    "facilityID": "668",
    "VISN": 20,
    "name": "Mann-Grandstaff Department of Veterans Affairs Medical Center",
    "type": 0,
    "address": "4815 North Assembly Street",
    "city": "Spokane",
    "state": "WA",
    "zip": "99205",
    "phone": "509-434-7000 ",
    "fax": "509-434-7100 ",
    "url": "http://www.spokane.va.gov/",
    "latitude": 47.70192861,
    "longitude": -117.47562057,
    "ApptTypeName": "PRIMARY CARE",
    "estWaitTime": 8.0,
    "newWaitTime": 21.0,
    "sliceEndDate": "2017-07-24T00:00:00",
    "ED": false,
    "UC": true,
    "SameDayPC": true,
    "SameDayMH": true,
    "WalkInPC": true,
    "WalkInMH": false,
    "TelehealthPC": true,
    "TelehealthMH": true,
    "distance": -1
  },
  {
    "facilityID": "663GC",
    "VISN": 20,
    "name": "Mount Vernon VA Clinic",
    "type": 1,
    "address": "307 South 13th Street",
    "city": "Mount Vernon",
    "state": "WA",
    "zip": "98274",
    "phone": "360-848-8500 ",
    "fax": "360-419-3700 ",
    "url": "",
    "latitude": 48.41879013,
    "longitude": -122.32531081,
    "ApptTypeName": "PRIMARY CARE",
    "estWaitTime": 5.0,
    "newWaitTime": 25.0,
    "sliceEndDate": "2017-07-24T00:00:00",
    "ED": false,
    "UC": false,
    "SameDayPC": true,
    "SameDayMH": true,
    "WalkInPC": false,
    "WalkInMH": true,
    "TelehealthPC": false,
    "TelehealthMH": true,
    "distance": -1
  },
  {
    "facilityID": "648A4",
    "VISN": 20,
    "name": "Portland VA Medical Center-Vancouver",
    "type": 0,
    "address": "1601 East 4th Plain Boulevard",
    "city": "Vancouver",
    "state": "WA",
    "zip": "98661",
    "phone": "360-759-1901 ",
    "fax": "360-690-0864 ",
    "url": "http://www.portland.va.gov/",
    "latitude": 45.63941626,
    "longitude": -122.65528736,
    "ApptTypeName": "PRIMARY CARE",
    "estWaitTime": 4.0,
    "newWaitTime": 30.0,
    "sliceEndDate": "2017-07-24T00:00:00",
    "ED": false,
    "UC": false,
    "SameDayPC": true,
    "SameDayMH": true,
    "WalkInPC": true,
    "WalkInMH": true,
    "TelehealthPC": false,
    "TelehealthMH": false,
    "distance": -1
  },
  {
    "facilityID": "687GA",
    "VISN": 20,
    "name": "Richland VA Clinic",
    "type": 1,
    "address": "825 Jadwin Avenue",
    "city": "Richland",
    "state": "WA",
    "zip": "99352",
    "phone": "509-946-1020 ",
    "fax": "509-946-0827 ",
    "url": "",
    "latitude": 46.27709224,
    "longitude": -119.27526135,
    "ApptTypeName": "PRIMARY CARE",
    "estWaitTime": 8.0,
    "newWaitTime": 16.0,
    "sliceEndDate": "2017-07-24T00:00:00",
    "ED": false,
    "UC": false,
    "SameDayPC": true,
    "SameDayMH": true,
    "WalkInPC": true,
    "WalkInMH": false,
    "TelehealthPC": false,
    "TelehealthMH": true,
    "distance": -1
  },
  {
    "facilityID": "663",
    "VISN": 20,
    "name": "Seattle VA Medical Center",
    "type": 0,
    "address": "1660 South Columbian Way",
    "city": "Seattle",
    "state": "WA",
    "zip": "98108",
    "phone": "800-329-8387 x71234",
    "fax": "206-764-2250 ",
    "url": "http://www.pugetsound.va.gov/",
    "latitude": 47.56199978,
    "longitude": -122.31100138,
    "ApptTypeName": "PRIMARY CARE",
    "estWaitTime": 5.0,
    "newWaitTime": 18.0,
    "sliceEndDate": "2017-07-24T00:00:00",
    "ED": true,
    "UC": false,
    "SameDayPC": true,
    "SameDayMH": true,
    "WalkInPC": false,
    "WalkInMH": true,
    "TelehealthPC": false,
    "TelehealthMH": false,
    "distance": -1
  },
  {
    "facilityID": "663GD",
    "VISN": 20,
    "name": "South Sound VA Clinic",
    "type": 1,
    "address": "151 Northeast Hampe Way",
    "city": "Chehalis",
    "state": "WA",
    "zip": "98532",
    "phone": "360-748-3049 ",
    "fax": "360-748-3006 ",
    "url": "",
    "latitude": 46.68801218,
    "longitude": -122.95765948,
    "ApptTypeName": "PRIMARY CARE",
    "estWaitTime": 13.0,
    "newWaitTime": 62.0,
    "sliceEndDate": "2017-07-24T00:00:00",
    "ED": false,
    "UC": false,
    "SameDayPC": true,
    "SameDayMH": true,
    "WalkInPC": false,
    "WalkInMH": false,
    "TelehealthPC": false,
    "TelehealthMH": true,
    "distance": -1
  },
  {
    "facilityID": "668GA",
    "VISN": 20,
    "name": "Wenatchee VA Clinic",
    "type": 1,
    "address": "2530 Chester Kimm Road",
    "city": "Wenatchee",
    "state": "WA",
    "zip": "98801",
    "phone": "509-663-7615 ",
    "fax": "509-663-7516 ",
    "url": "",
    "latitude": 47.4632378,
    "longitude": -120.33406988,
    "ApptTypeName": "PRIMARY CARE",
    "estWaitTime": 12.0,
    "newWaitTime": 25.0,
    "sliceEndDate": "2017-07-24T00:00:00",
    "ED": false,
    "UC": false,
    "SameDayPC": true,
    "SameDayMH": true,
    "WalkInPC": true,
    "WalkInMH": false,
    "TelehealthPC": true,
    "TelehealthMH": true,
    "distance": -1
  },
  {
    "facilityID": "687HA",
    "VISN": 20,
    "name": "Yakima VA Clinic",
    "type": 1,
    "address": "717 Fruitvale Boulevard",
    "city": "Yakima",
    "state": "WA",
    "zip": "98902",
    "phone": "509-966-0199 ",
    "fax": "509-966-4266 ",
    "url": "",
    "latitude": 46.612587,
    "longitude": -120.52211942,
    "ApptTypeName": "PRIMARY CARE",
    "estWaitTime": 5.0,
    "newWaitTime": 31.0,
    "sliceEndDate": "2017-07-24T00:00:00",
    "ED": false,
    "UC": false,
    "SameDayPC": true,
    "SameDayMH": true,
    "WalkInPC": false,
    "WalkInMH": false,
    "TelehealthPC": true,
    "TelehealthMH": true,
    "distance": -1
  }
]
